Name,Address,Rating,Total Reviews,Phone,Website,Opening Hours,Price Level,Types,Latitude,Longitude
Jolene's - Ewa Beach,"91-1087 Keaunui Dr Ste 400, Ewa Beach, HI 96706, USA",4.5,213,+1 808-683-1000,http://joleneshawaii.com/,"Monday: 10:00 AM – 7:45 PM, Tuesday: 10:00 AM – 7:45 PM, Wednesday: 10:00 AM – 7:45 PM, Thursday: 10:00 AM – 7:45 PM, Friday: 10:00 AM – 7:45 PM, Saturday: 10:00 AM – 7:45 PM, Sunday: 10:00 AM – 7:45 PM",PRICE_LEVEL_MODERATE,"american_restaurant, restaurant, point_of_interest, food, establishment",21.3265816,-158.0210639
D'lish at the beach,"5440 Edgewater Dr, Ewa Beach, HI 96706, USA",4.6,206,+1 808-371-2384,https://www.facebook.com/Dlishatthebeachkapilina/,"Monday: Closed, Tuesday: 4:30 – 7:30 PM, Wednesday: 4:30 – 7:30 PM, Thursday: 4:30 – 7:30 PM, Friday: 4:30 – 9:00 PM, Saturday: 8:00 AM – 9:00 PM, Sunday: 8:00 AM – 3:00 PM",PRICE_LEVEL_MODERATE,"restaurant, point_of_interest, food, establishment",21.3181704,-157.97650339999998
Moodys ohana,"5931 Gannet Ave, Ewa Beach, HI 96706, USA",5,1,+1 808-631-1798,https://moodysohana.com/,,,"american_restaurant, restaurant, point_of_interest, food, establishment",21.3223536,-157.97623289999999
Kountry Style Kitchen Restaurant Ewa Beach,"91-1001 Kaimalie St, Ewa Beach, HI 96706, USA",4.5,503,+1 808-689-9000,http://kountrystylekitchenewa.com/,"Monday: 7:00 AM – 1:00 PM, Tuesday: Closed, Wednesday: Closed, Thursday: 7:00 AM – 1:00 PM, Friday: 7:00 AM – 1:00 PM, Saturday: 7:00 AM – 1:00 PM, Sunday: 7:00 AM – 1:00 PM",PRICE_LEVEL_MODERATE,"restaurant, point_of_interest, food, establishment",21.3191836,-158.0149928
Restaurant Tombo,"91-050 Fort Weaver Rd, Ewa Beach, HI 96706, USA",4.3,9,+1 808-689-6565,,"Monday: 11:00 AM – 6:00 PM, Tuesday: 11:00 AM – 6:00 PM, Wednesday: 11:00 AM – 6:00 PM, Thursday: 11:00 AM – 6:00 PM, Friday: 11:00 AM – 6:00 PM, Saturday: 10:00 AM – 6:00 PM, Sunday: 10:00 AM – 6:00 PM",,"restaurant, point_of_interest, food, establishment",21.316245199999997,-157.9922246
The LookOut Food & Drink,"91-1621 Keone'ula Blvd, Ewa Beach, HI 96706, USA",3.4,82,+1 808-900-3579,https://waikai.com/,"Monday: 2:00 – 9:00 PM, Tuesday: 4:00 – 9:00 PM, Wednesday: 4:00 – 9:00 PM, Thursday: 11:00 AM – 10:00 PM, Friday: 11:00 AM – 10:00 PM, Saturday: 11:00 AM – 10:00 PM, Sunday: 7:00 AM – 9:00 PM",,"restaurant, point_of_interest, food, establishment",21.308682299999997,-158.0408272
Loco Moco Drive Inn Ewa Beach,"91-919 Fort Weaver Rd, Ocean Pointe, HI 96706, USA",4.3,177,+1 808-689-8321,https://www.clover.com/online-ordering/loco-moco-drive-inn-ewa-beach,"Monday: 8:00 AM – 9:00 PM, Tuesday: 8:00 AM – 9:00 PM, Wednesday: 8:00 AM – 9:00 PM, Thursday: 8:00 AM – 9:00 PM, Friday: 8:00 AM – 9:00 PM, Saturday: 7:00 AM – 9:00 PM, Sunday: 7:00 AM – 9:00 PM",PRICE_LEVEL_INEXPENSIVE,"american_restaurant, restaurant, point_of_interest, food, establishment",21.3163776,-158.0138397
PLAZA GRILL,"Ewa Beach, HI 96706, USA",5,2,,,,,"restaurant, point_of_interest, food, establishment",21.3083019,-158.04034629999998
Wingman,"Iroquois and, North Rd, Ewa Beach, HI 96706, USA",4.2,5,+1 808-452-7886,http://wingman6.net/,"Monday: Closed, Tuesday: 4:00 – 10:00 PM, Wednesday: 6:00 – 10:00 PM, Thursday: 6:00 – 9:00 PM, Friday: 4:00 – 11:30 PM, Saturday: Closed, Sunday: 10:00 AM – 1:00 PM",,"restaurant, point_of_interest, food, establishment",21.3252509,-157.9853766
Lucky Box Ewa Beach,"91-1001 Kaimalie St, Ewa Beach, HI 96706, USA",5,6,+1 808-260-4167,,"Monday: 10:00 AM – 9:00 PM, Tuesday: 10:00 AM – 9:00 PM, Wednesday: 10:00 AM – 9:00 PM, Thursday: 10:00 AM – 9:00 PM, Friday: 10:00 AM – 9:00 PM, Saturday: 10:00 AM – 9:00 PM, Sunday: Closed",PRICE_LEVEL_MODERATE,"fast_food_restaurant, restaurant, point_of_interest, food, establishment",21.318870999999998,-158.0156614
Frida's Hawaii,"91-1001 Kaimalie St #105, Ewa Beach, HI 96706, USA",4.5,208,+1 808-200-1813,https://fridas-hawaii.com/,"Monday: 11:00 AM – 7:30 PM, Tuesday: 11:00 AM – 8:00 PM, Wednesday: 11:00 AM – 8:00 PM, Thursday: 11:00 AM – 8:00 PM, Friday: 11:00 AM – 8:30 PM, Saturday: 11:00 AM – 8:30 PM, Sunday: 11:00 AM – 7:00 PM",PRICE_LEVEL_MODERATE,"mexican_restaurant, meal_takeaway, restaurant, point_of_interest, food, establishment",21.318946399999998,-158.01561189999998
Rakki ramen,"91-1121 Keaunui Dr #104, Ewa Beach, HI 96706, USA",4.4,23,+1 808-517-3144,,"Monday: 10:00 AM – 9:30 PM, Tuesday: 10:00 AM – 9:30 PM, Wednesday: 10:00 AM – 9:30 PM, Thursday: 10:00 AM – 9:30 PM, Friday: 10:00 AM – 9:30 PM, Saturday: 10:00 AM – 9:30 PM, Sunday: 10:00 AM – 9:30 PM",PRICE_LEVEL_INEXPENSIVE,"japanese_restaurant, restaurant, point_of_interest, food, establishment",21.3281612,-158.0210165
Bann Thai,"91-1001 Kaimalie St #111a, Ewa Beach, HI 96706, USA",4.5,38,+1 808-689-6790,https://bannthaihawaii.com/,"Monday: 11:00 AM – 9:00 PM, Tuesday: 11:00 AM – 9:00 PM, Wednesday: 11:00 AM – 9:00 PM, Thursday: 11:00 AM – 9:00 PM, Friday: 11:00 AM – 9:00 PM, Saturday: 11:00 AM – 9:00 PM, Sunday: 11:00 AM – 9:00 PM",PRICE_LEVEL_MODERATE,"thai_restaurant, restaurant, point_of_interest, food, establishment",21.3188921,-158.01578759999998
60Fore Bar & Grill,"Barbers Point Golf Course, 2249 Essex Rd, Kapolei, HI 96707, USA",4.4,262,+1 808-800-2153,https://www.60fore.com/,"Monday: 9:00 AM – 9:00 PM, Tuesday: 9:00 AM – 9:00 PM, Wednesday: 9:00 AM – 9:00 PM, Thursday: 9:00 AM – 9:00 PM, Friday: 9:00 AM – 11:00 PM, Saturday: 9:00 AM – 11:00 PM, Sunday: 9:00 AM – 9:00 PM",PRICE_LEVEL_MODERATE,"asian_restaurant, american_restaurant, restaurant, point_of_interest, food, establishment",21.3247574,-158.0389246
Elim Korean Barbeque,"91-919 Fort Weaver Rd # 102A, Ewa Beach, HI 96706, USA",4.4,86,+1 808-689-4828,,"Monday: 10:00 AM – 9:00 PM, Tuesday: 10:00 AM – 9:00 PM, Wednesday: 10:00 AM – 9:00 PM, Thursday: 10:00 AM – 9:00 PM, Friday: 10:00 AM – 9:00 PM, Saturday: 10:00 AM – 9:00 PM, Sunday: 10:00 AM – 9:00 PM",,"korean_restaurant, restaurant, point_of_interest, food, establishment",21.3163789,-158.01370269999998
Shiro's Saimin Haven,"91-919 Fort Weaver Rd, Ewa Beach, HI 96706, USA",4.3,395,+1 808-689-0999,https://shiros-saimin.com/,"Monday: 7:30 AM – 8:30 PM, Tuesday: 7:30 AM – 8:30 PM, Wednesday: 7:30 AM – 8:30 PM, Thursday: 7:30 AM – 8:30 PM, Friday: 7:30 AM – 8:30 PM, Saturday: 7:30 AM – 8:30 PM, Sunday: 7:30 AM – 8:30 PM",PRICE_LEVEL_INEXPENSIVE,"american_restaurant, restaurant, point_of_interest, food, establishment",21.3162214,-158.0137594
Spoon Bunsik,"91-775 Papipi Rd #B, Ewa Beach, HI 96706, USA",4.6,264,+1 808-689-6646,https://spoonkoreankitchen.com/,"Monday: 11:00 AM – 8:00 PM, Tuesday: 11:00 AM – 8:00 PM, Wednesday: 11:00 AM – 8:00 PM, Thursday: 11:00 AM – 8:00 PM, Friday: 11:00 AM – 8:00 PM, Saturday: 11:00 AM – 8:00 PM, Sunday: Closed",PRICE_LEVEL_MODERATE,"korean_restaurant, restaurant, point_of_interest, food, establishment",21.3157849,-158.013171
Bird of Paradise Restaurant,"Keaunui Dr, Ewa Beach, HI 96706, USA",4.2,118,+1 808-952-4784,https://www.hawaiiprincegolf.com/bird-of-paradise/,"Monday: 11:00 AM – 3:00 PM, Tuesday: 11:00 AM – 3:00 PM, Wednesday: 11:00 AM – 3:00 PM, Thursday: 11:00 AM – 3:00 PM, Friday: 11:00 AM – 3:00 PM, Saturday: 5:00 – 10:00 PM, Sunday: 11:00 AM – 5:00 PM",PRICE_LEVEL_MODERATE,"buffet_restaurant, restaurant, point_of_interest, food, establishment",21.328300199999997,-158.00897730000003
Ono Thai,"91-896 Makule Rd Ste 106, Ewa Beach, HI 96706, USA",4.6,332,+1 808-689-5808,http://onothaicuisine.com/,"Monday: 10:30 AM – 9:00 PM, Tuesday: 10:30 AM – 9:00 PM, Wednesday: 10:30 AM – 9:00 PM, Thursday: 10:30 AM – 9:00 PM, Friday: 10:30 AM – 9:00 PM, Saturday: 10:30 AM – 9:00 PM, Sunday: 10:30 AM – 9:00 PM",PRICE_LEVEL_MODERATE,"thai_restaurant, restaurant, point_of_interest, food, establishment",21.3155194,-158.0129861
Ohana Drive Inn,"91-896 Makule Rd #101, Ewa Beach, HI 96706, USA",4.4,100,+1 808-689-8808,http://ohanadriveinn.weebly.com/,"Monday: 8:00 AM – 8:00 PM, Tuesday: 8:00 AM – 8:00 PM, Wednesday: 8:00 AM – 8:00 PM, Thursday: 8:00 AM – 8:00 PM, Friday: 8:00 AM – 8:00 PM, Saturday: 8:00 AM – 8:00 PM, Sunday: 8:00 AM – 7:00 PM",PRICE_LEVEL_INEXPENSIVE,"catering_service, food_delivery, restaurant, point_of_interest, food, establishment",21.3155115,-158.01290229999998
Pillar To Post Home Inspectors - Doug Sward Team,"9 Manker Dr, Florham Park, NJ 07932, USA",5,417,+1 973-224-7452,https://morris.pillartopost.com/,"Monday: 9:00 AM – 5:00 PM, Tuesday: 9:00 AM – 5:00 PM, Wednesday: 9:00 AM – 5:00 PM, Thursday: 9:00 AM – 5:00 PM, Friday: 9:00 AM – 5:00 PM, Saturday: 9:00 AM – 5:00 PM, Sunday: Closed",,"point_of_interest, establishment",40.770696799999996,-74.40288720000001
Cornerstone Home Inspections,"62 Mountain Ave, Warren, NJ 07059, USA",4.9,176,+1 973-650-4151,http://www.cornerstonehomeinspections.net/,"Monday: 9:00 AM – 7:00 PM, Tuesday: 9:00 AM – 7:00 PM, Wednesday: 9:00 AM – 7:00 PM, Thursday: 9:00 AM – 7:00 PM, Friday: 9:00 AM – 7:00 PM, Saturday: 9:00 AM – 7:00 PM, Sunday: 9:00 AM – 7:00 PM",,"point_of_interest, establishment",40.658994799999995,-74.466763
Blair Inspection Services LLC,"75 Main St STE 201, Millburn, NJ 07041, USA",5,72,+1 973-464-7763,http://blairinspectionsnj.com/,"Monday: 6:00 AM – 10:00 PM, Tuesday: 6:00 AM – 10:00 PM, Wednesday: 6:00 AM – 10:00 PM, Thursday: 6:00 AM – 10:00 PM, Friday: 6:00 AM – 10:00 PM, Saturday: 6:00 AM – 10:00 PM, Sunday: 6:00 AM – 10:00 PM",,"point_of_interest, establishment",40.7229898,-74.3073568
Mike Leonard Home Inspections LLC,"8 Highland Ave, Maplewood, NJ 07040, USA",5,132,+1 973-801-0900,http://www.inspector.house/,"Monday: 9:00 AM – 9:00 PM, Tuesday: 9:00 AM – 9:00 PM, Wednesday: 9:00 AM – 9:00 PM, Thursday: 9:00 AM – 9:00 PM, Friday: 9:00 AM – 9:00 PM, Saturday: 9:00 AM – 9:00 PM, Sunday: 9:00 AM – 9:00 PM",,"point_of_interest, establishment",40.731638499999995,-74.256441
Reliable Home Inspection,"446 Morris Ave, Springfield, NJ 07081, USA",4.6,24,+1 908-964-2930,http://www.reliablehomeinspectors.com/,"Monday: 8:30 AM – 5:00 PM, Tuesday: 8:30 AM – 5:00 PM, Wednesday: 8:30 AM – 5:00 PM, Thursday: 8:30 AM – 5:00 PM, Friday: 8:30 AM – 5:00 PM, Saturday: 8:30 AM – 5:00 PM, Sunday: Closed",,"point_of_interest, establishment",40.7148909,-74.3192442
Rooney Home Inspections,"49 Tuscan St, Maplewood, NJ 07040, USA",5,24,+1 973-996-8257,https://www.rooneyhomeinspections.com/,"Monday: 8:00 AM – 8:00 PM, Tuesday: 8:00 AM – 8:00 PM, Wednesday: 8:00 AM – 8:00 PM, Thursday: 8:00 AM – 8:00 PM, Friday: 8:00 AM – 8:00 PM, Saturday: 9:00 AM – 8:00 PM, Sunday: 10:00 AM – 5:00 PM",,"point_of_interest, establishment",40.7229221,-74.2618157
Brookfield Home Inspections,"118 Elm St, Montclair, NJ 07042, USA",5,48,+1 856-316-2531,https://www.brookfieldhomeinspections.com/?utm_source=google&utm_medium=gbp&utm_campaign=gbp,"Monday: 8:00 AM – 6:00 PM, Tuesday: 8:00 AM – 6:00 PM, Wednesday: 8:00 AM – 6:00 PM, Thursday: 8:00 AM – 6:00 PM, Friday: 8:00 AM – 6:00 PM, Saturday: 10:00 AM – 4:00 PM, Sunday: 10:00 AM – 4:00 PM",,"point_of_interest, establishment",40.8043243,-74.2188024
"DETAIL HOME INSPECTIONS, LLC","601 US-206 Suite 26-306, Hillsborough Township, NJ 08844, USA",5,44,+1 908-552-1897,http://detailhomeinspections.com/,"Monday: 7:00 AM – 11:00 PM, Tuesday: 7:00 AM – 11:00 PM, Wednesday: 7:00 AM – 11:00 PM, Thursday: 7:00 AM – 11:00 PM, Friday: 7:00 AM – 11:00 PM, Saturday: 7:00 AM – 11:00 PM, Sunday: Closed",,"point_of_interest, establishment",40.5009118,-74.6434069
Immaculate Home Inspections,"10 Keimel Court, West Orange, NJ 07052, USA",4.8,20,+1 908-599-2992,https://immaculatehomeinspection.com/,"Monday: 8:00 AM – 6:00 PM, Tuesday: 8:00 AM – 6:00 PM, Wednesday: 8:00 AM – 6:00 PM, Thursday: 8:00 AM – 6:00 PM, Friday: 8:00 AM – 6:00 PM, Saturday: 8:00 AM – 6:00 PM, Sunday: Closed",,"point_of_interest, establishment",40.7709706,-74.2932714
Signature Home Inspections,"9 Vivian St, Lincoln Park, NJ 07035, USA",4.9,182,+1 845-321-0246,https://www.signaturehomeinspectionsnj.com/,"Monday: 9:00 AM – 6:00 PM, Tuesday: 9:00 AM – 6:00 PM, Wednesday: 9:00 AM – 6:00 PM, Thursday: 9:00 AM – 6:00 PM, Friday: 9:00 AM – 6:00 PM, Saturday: 8:00 AM – 2:00 PM, Sunday: Closed",,"point_of_interest, establishment",40.9344465,-74.30716919999999
iKenInspect Home Inspection,"8 Dawson Rd, Mendham Township, NJ 07945, USA",5,111,+1 973-610-1031,http://www.ikeninspect.com/,"Monday: 9:00 AM – 5:00 PM, Tuesday: 9:00 AM – 5:00 PM, Wednesday: 9:00 AM – 5:00 PM, Thursday: 9:00 AM – 5:00 PM, Friday: 9:00 AM – 5:00 PM, Saturday: 10:00 AM – 4:00 PM, Sunday: Closed",,"point_of_interest, establishment",40.820360099999995,-74.6138462
Meyers Home Inspections,"35 Glenside Rd, South Orange Village, NJ 07079, USA",5,6,+1 973-464-4449,http://www.njhomeinspectionengineers.com/,"Monday: 8:00 AM – 6:00 PM, Tuesday: 8:00 AM – 6:00 PM, Wednesday: 8:00 AM – 6:00 PM, Thursday: 8:00 AM – 6:00 PM, Friday: 8:00 AM – 6:00 PM, Saturday: 8:00 AM – 6:00 PM, Sunday: 10:00 AM – 4:30 PM",,"point_of_interest, establishment",40.75722,-74.2622927
DiR Home Consulting & Inspections,"694 Fairmount Ave, Chatham Township, NJ 07928, USA",4,12,+1 551-655-5500,http://www.dirinspect.com/,"Monday: 7:00 AM – 9:00 PM, Tuesday: 7:00 AM – 9:00 PM, Wednesday: 7:00 AM – 9:00 PM, Thursday: 7:00 AM – 9:00 PM, Friday: 7:00 AM – 9:00 PM, Saturday: 7:00 AM – 9:00 PM, Sunday: 7:00 AM – 9:00 PM",,"point_of_interest, establishment",40.709560599999996,-74.42570769999999
All pro home inspections,"10 Inwood Pl, Maplewood, NJ 07040, USA",4.3,6,+1 973-868-4979,https://www.allprohome.com/,"Monday: 8:00 AM – 7:00 PM, Tuesday: 8:00 AM – 7:00 PM, Wednesday: 8:00 AM – 7:00 PM, Thursday: 8:00 AM – 7:00 PM, Friday: 8:00 AM – 7:00 PM, Saturday: 8:00 AM – 7:00 PM, Sunday: Closed",,"point_of_interest, establishment",40.731771699999996,-74.27784
Optimal Home Inspections,"2600 John F. Kennedy Blvd, Jersey City, NJ 07306, USA",4.8,35,+1 551-261-1264,https://optimalhomeinspections.com/,"Monday: 8:00 AM – 9:00 PM, Tuesday: 8:00 AM – 9:00 PM, Wednesday: 8:00 AM – 9:00 PM, Thursday: 8:00 AM – 9:00 PM, Friday: 8:00 AM – 9:00 PM, Saturday: 8:00 AM – 9:00 PM, Sunday: 8:00 AM – 9:00 PM",,"consultant, point_of_interest, establishment",40.7253544,-74.07288679999999
Bourbon and Branch,"155 W 33rd St, New York, NY 10001, USA",4.4,293,+1 929-419-4951,https://bourbonandbranchnyc.com/,"Monday: 11:30 AM – 12:00 AM, Tuesday: 11:30 AM – 12:00 AM, Wednesday: 11:30 AM – 1:00 AM, Thursday: 11:30 AM – 2:00 AM, Friday: 11:30 AM – 2:00 AM, Saturday: 11:00 AM – 3:00 AM, Sunday: 11:00 AM – 12:00 AM",,"bar_and_grill, bar, american_restaurant, restaurant, food, point_of_interest, establishment",40.75030160000001,-73.9904585
Shukette,"230 9th Ave, New York, NY 10001, USA",4.7,1422,+1 212-242-1803,http://www.shukettenyc.com/,"Monday: 5:00 – 11:00 PM, Tuesday: 5:00 – 11:00 PM, Wednesday: 5:00 – 11:00 PM, Thursday: 5:00 – 11:00 PM, Friday: 5:00 – 11:00 PM, Saturday: 5:00 – 11:00 PM, Sunday: 4:00 – 10:00 PM",,"middle_eastern_restaurant, mediterranean_restaurant, restaurant, food, point_of_interest, establishment",40.747154599999995,-74.0005218
Zou Zou’s,"385 9th Ave Suite 85, New York, NY 10001, USA",4.3,998,+1 212-380-8585,http://www.zouzousnyc.com/,"Monday: 11:30 AM – 2:30 PM, 5:00 – 11:00 PM, Tuesday: 11:30 AM – 2:30 PM, 5:00 – 11:00 PM, Wednesday: 11:30 AM – 2:30 PM, 5:00 – 11:00 PM, Thursday: 11:30 AM – 2:30 PM, 5:00 – 11:00 PM, Friday: 11:30 AM – 2:30 PM, 5:00 – 11:00 PM, Saturday: 11:00 AM – 2:30 PM, 5:00 – 11:00 PM, Sunday: 11:00 AM – 2:30 PM, 5:00 – 11:00 PM",PRICE_LEVEL_MODERATE,"mediterranean_restaurant, bar_and_grill, bar, restaurant, food, point_of_interest, establishment",40.7528364,-73.99860079999999
Mustang Harry's,"352 7th Ave, New York, NY 10001, USA",4.4,2286,+1 212-268-8930,https://www.mustangharrys.com/,"Monday: 11:00 AM – 3:00 AM, Tuesday: 11:00 AM – 3:00 AM, Wednesday: 11:00 AM – 3:00 AM, Thursday: 11:00 AM – 3:00 AM, Friday: 11:00 AM – 3:00 AM, Saturday: 11:00 AM – 3:00 AM, Sunday: 11:00 AM – 3:00 AM",PRICE_LEVEL_MODERATE,"restaurant, bar, food, point_of_interest, establishment",40.7483311,-73.9929116
The Harold Bistro,"1271 Broadway, New York, NY 10001, USA",4.2,1682,+1 212-686-1888,http://www.theharoldnyc.com/,"Monday: 8:00 AM – 10:00 PM, Tuesday: 8:00 AM – 10:00 PM, Wednesday: 8:00 AM – 10:00 PM, Thursday: 8:00 AM – 11:00 PM, Friday: 8:00 AM – 11:00 PM, Saturday: 8:00 AM – 11:00 PM, Sunday: 8:00 AM – 10:00 PM",PRICE_LEVEL_MODERATE,"restaurant, food, point_of_interest, establishment",40.748214,-73.988376
L'Amico,"849 6th Ave, New York, NY 10001, USA",4.2,1599,+1 212-201-4065,http://www.lamico.nyc/,"Monday: 7:00 – 10:00 AM, 11:30 AM – 2:30 PM, 5:00 – 10:00 PM, Tuesday: 7:00 – 10:00 AM, 11:30 AM – 2:30 PM, 5:00 – 10:00 PM, Wednesday: 7:00 – 10:00 AM, 11:30 AM – 2:30 PM, 5:00 – 10:00 PM, Thursday: 7:00 – 10:00 AM, 11:30 AM – 2:30 PM, 5:00 – 10:00 PM, Friday: 7:00 – 10:00 AM, 11:30 AM – 2:30 PM, 5:00 – 10:00 PM, Saturday: 7:00 – 10:00 AM, 11:30 AM – 3:00 PM, 5:00 – 10:00 PM, Sunday: 7:00 – 10:00 AM, 11:30 AM – 3:00 PM, 5:00 – 10:00 PM",PRICE_LEVEL_MODERATE,"italian_restaurant, restaurant, food, point_of_interest, establishment",40.7469306,-73.99008909999999
The Wilson,"132 W 27th St, New York, NY 10001, USA",4.3,735,+1 212-529-2671,https://eatatthewilson.com/nyc/,"Monday: 7:00 AM – 11:00 PM, Tuesday: 7:00 AM – 11:00 PM, Wednesday: 7:00 AM – 11:00 PM, Thursday: 7:00 AM – 11:00 PM, Friday: 7:00 AM – 11:00 PM, Saturday: 7:00 AM – 12:00 AM, Sunday: 7:00 AM – 11:00 PM",PRICE_LEVEL_MODERATE,"seafood_restaurant, brunch_restaurant, breakfast_restaurant, bar, american_restaurant, restaurant, food, point_of_interest, establishment",40.7460204,-73.9927905
Anytime Kitchen,"23 W 32nd St 3rd floor, New York, NY 10001, USA",4.6,1981,+1 646-669-7733,https://www.anytimenyc.com/,"Monday: 11:30 AM – 3:00 PM, 5:00 PM – 1:00 AM, Tuesday: 11:30 AM – 3:00 PM, 5:00 PM – 1:00 AM, Wednesday: 11:30 AM – 3:00 PM, 5:00 PM – 1:00 AM, Thursday: 11:30 AM – 3:00 PM, 5:00 PM – 1:00 AM, Friday: 11:30 AM – 3:00 PM, 5:00 PM – 3:30 AM, Saturday: 11:30 AM – 3:00 PM, 5:00 PM – 3:30 AM, Sunday: 11:30 AM – 3:00 PM, 5:00 PM – 1:00 AM",PRICE_LEVEL_MODERATE,"korean_restaurant, bar, american_restaurant, restaurant, food, point_of_interest, establishment",40.747774899999996,-73.9867579
Upland,"345 Park Ave S, New York, NY 10010, USA",4.5,2224,+1 212-686-1006,https://uplandnyc.com/?utm_source=GoogleBusinessProfile&utm_medium=Website&utm_campaign=MapLabs,"Monday: 11:30 AM – 3:00 PM, 5:00 – 10:00 PM, Tuesday: 11:30 AM – 3:00 PM, 5:00 – 10:00 PM, Wednesday: 11:30 AM – 3:00 PM, 5:00 – 10:00 PM, Thursday: 11:30 AM – 3:00 PM, 5:00 – 10:00 PM, Friday: 11:30 AM – 3:00 PM, 5:00 – 11:00 PM, Saturday: 10:00 AM – 3:00 PM, 5:00 – 11:00 PM, Sunday: 10:00 AM – 3:00 PM, 5:00 – 9:00 PM",PRICE_LEVEL_EXPENSIVE,"restaurant, meal_takeaway, italian_restaurant, bar, american_restaurant, food, point_of_interest, establishment",40.7419313,-73.984644
Friedman's Herald Square,"138 W 31st St, New York, NY 10001, USA",4.4,3941,+1 212-971-9400,http://www.friedmansrestaurant.com/,"Monday: 8:30 AM – 3:45 PM, 4:30 – 9:00 PM, Tuesday: 8:30 AM – 3:45 PM, 4:30 – 9:00 PM, Wednesday: 8:30 AM – 3:45 PM, 4:30 – 9:00 PM, Thursday: 8:30 AM – 3:45 PM, 4:30 – 9:00 PM, Friday: 8:30 AM – 3:45 PM, 4:30 – 9:00 PM, Saturday: 8:30 AM – 3:45 PM, 4:30 – 9:00 PM, Sunday: 8:30 AM – 3:45 PM, 4:30 – 9:00 PM",PRICE_LEVEL_MODERATE,"american_restaurant, hamburger_restaurant, vegetarian_restaurant, brunch_restaurant, wine_bar, breakfast_restaurant, meal_takeaway, bar, restaurant, food, point_of_interest, establishment",40.7485089,-73.9908866
Kabooz's Bar & Grill,"Penn Station, upper level, New York, NY 10001, USA",4.5,544,+1 212-760-0848,http://www.kaboozs.com/,"Monday: 11:00 AM – 11:00 PM, Tuesday: 11:00 AM – 11:00 PM, Wednesday: 11:00 AM – 11:00 PM, Thursday: 11:00 AM – 11:00 PM, Friday: 11:00 AM – 11:00 PM, Saturday: 11:00 AM – 10:00 PM, Sunday: 11:00 AM – 10:00 PM",PRICE_LEVEL_MODERATE,"bar_and_grill, bar, american_restaurant, restaurant, food, point_of_interest, establishment",40.7503071,-73.9921339
Chalong NYC,"749 9th Ave, New York, NY 10019, USA",4.8,1427,+1 212-466-6456,http://www.chalongnyc.com/,"Monday: 12:00 – 3:30 PM, 5:00 – 10:00 PM, Tuesday: 12:00 – 3:30 PM, 5:00 – 10:00 PM, Wednesday: 12:00 – 3:30 PM, 5:00 – 10:00 PM, Thursday: 12:00 – 3:30 PM, 5:00 – 10:00 PM, Friday: 12:00 – 3:30 PM, 5:00 – 11:00 PM, Saturday: 12:00 – 3:30 PM, 5:00 – 11:00 PM, Sunday: 12:00 – 3:30 PM, 5:00 – 10:00 PM",PRICE_LEVEL_MODERATE,"thai_restaurant, restaurant, food, point_of_interest, establishment",40.763955599999996,-73.98899449999999
Pennsylvania 6,"132 W 31st St, New York, NY 10001, USA",4.3,1029,+1 212-727-3666,http://pennsylvania6nyc.com/,"Monday: 11:30 AM – 9:00 PM, Tuesday: 11:30 AM – 9:00 PM, Wednesday: 11:30 AM – 9:00 PM, Thursday: 11:30 AM – 9:00 PM, Friday: 11:30 AM – 9:00 PM, Saturday: 10:00 AM – 9:00 PM, Sunday: 10:00 AM – 9:00 PM",PRICE_LEVEL_MODERATE,"american_restaurant, steak_house, brunch_restaurant, pizza_restaurant, wine_bar, bar, restaurant, food, point_of_interest, establishment",40.7483333,-73.99083329999999
estiatorio Milos Hudson Yards,"20 Hudson Yards Fifth Floor, New York, NY 10001, USA",4.4,865,+1 646-907-1970,https://www.estiatoriomilos.com/location/nyhudsonyards/,"Monday: 11:30 AM – 3:30 PM, 4:30 – 11:30 PM, Tuesday: 11:30 AM – 3:30 PM, 4:30 – 11:30 PM, Wednesday: 11:30 AM – 3:30 PM, 4:30 – 11:30 PM, Thursday: 11:30 AM – 3:30 PM, 4:30 – 11:30 PM, Friday: 11:30 AM – 3:30 PM, 4:30 – 11:30 PM, Saturday: 12:00 – 11:30 PM, Sunday: 12:00 – 11:30 PM",PRICE_LEVEL_VERY_EXPENSIVE,"seafood_restaurant, greek_restaurant, mediterranean_restaurant, fine_dining_restaurant, restaurant, food, point_of_interest, establishment",40.7538419,-74.00107679999999
NAYA,"351 W 33rd St, New York, NY 10001, USA",4.3,149,+1 929-946-8406,https://www.eatnaya.com/,"Monday: 10:30 AM – 8:30 PM, Tuesday: 10:30 AM – 8:30 PM, Wednesday: 10:30 AM – 8:30 PM, Thursday: 10:30 AM – 8:30 PM, Friday: 10:30 AM – 8:30 PM, Saturday: 11:00 AM – 7:00 PM, Sunday: 11:00 AM – 7:00 PM",PRICE_LEVEL_INEXPENSIVE,"middle_eastern_restaurant, mediterranean_restaurant, restaurant, food, point_of_interest, establishment",40.7516135,-73.99587199999999
The Old Spaghetti Factory,"3 Aloha Tower Dr 1106 ste 1106, Honolulu, HI 96813, USA",4.3,1762,+1 808-591-2513,http://www.osf.com/location/honolulu-hi/,"Monday: 11:00 AM – 9:00 PM, Tuesday: 11:00 AM – 9:00 PM, Wednesday: 11:00 AM – 9:00 PM, Thursday: 11:00 AM – 9:00 PM, Friday: 11:00 AM – 10:00 PM, Saturday: 11:00 AM – 10:00 PM, Sunday: 11:00 AM – 9:00 PM",PRICE_LEVEL_MODERATE,"italian_restaurant, banquet_hall, catering_service, event_venue, food_delivery, restaurant, food, point_of_interest, establishment",21.3069496,-157.8653037
Ruth's Chris Steak House,"226 Lewers St, Waikiki, HI 96815, USA",4.5,2713,+1 808-440-7910,https://www.ruthschris.com/locations/hi/waikiki/waikiki/7361?cmpid=br:rc_ag:ie_ch:loc_ca:RCGMB_sn:gmb_gt:waikiki-hi-7361_pl:locurl_rd:1067,"Monday: 4:00 – 10:00 PM, Tuesday: 4:00 – 10:00 PM, Wednesday: 4:00 – 10:00 PM, Thursday: 4:00 – 10:00 PM, Friday: 4:00 – 10:30 PM, Saturday: 4:00 – 10:30 PM, Sunday: 4:00 – 9:00 PM",PRICE_LEVEL_VERY_EXPENSIVE,"restaurant, steak_house, fine_dining_restaurant, catering_service, seafood_restaurant, american_restaurant, food_delivery, food, point_of_interest, establishment",21.2790777,-157.8314617
Her Name is Han,"17 E 31st St, New York, NY 10016, USA",4.5,2433,+1 212-779-9990,http://www.hernameishan.com/,"Monday: 12:00 – 2:00 PM, 5:00 – 9:50 PM, Tuesday: 12:00 – 2:00 PM, 5:00 – 9:50 PM, Wednesday: 12:00 – 2:00 PM, 5:00 – 9:50 PM, Thursday: 12:00 – 2:00 PM, 5:00 – 9:50 PM, Friday: 12:00 – 2:00 PM, 5:00 – 10:50 PM, Saturday: 12:00 – 2:00 PM, 5:00 – 10:50 PM, Sunday: 12:00 – 2:00 PM, 5:00 – 9:50 PM",PRICE_LEVEL_MODERATE,"korean_restaurant, restaurant, food, point_of_interest, establishment",40.7462496,-73.9847616
Chez Zou,"385 9th Ave Suite 85 4th Floor, New York, NY 10001, USA",4.5,133,+1 212-380-8585,http://www.chezzou.com/,"Monday: 5:00 PM – 12:00 AM, Tuesday: 5:00 PM – 1:00 AM, Wednesday: 5:00 PM – 1:00 AM, Thursday: 5:00 PM – 1:00 AM, Friday: 5:00 PM – 1:00 AM, Saturday: 5:00 PM – 1:00 AM, Sunday: 5:00 PM – 12:00 AM",,"bar, point_of_interest, establishment",40.753032499999996,-73.9982397
"Max's Restaurant Waipahu, Cuisine of the Philippines","94-300 Farrington Hwy, Waipahu, HI 96797, USA",3.9,401,+1 808-698-7910,https://www.maxsrestaurantna.com/,"Monday: 10:30 AM – 9:00 PM, Tuesday: 10:30 AM – 9:00 PM, Wednesday: 10:30 AM – 9:00 PM, Thursday: 10:30 AM – 9:00 PM, Friday: 10:30 AM – 9:00 PM, Saturday: 10:30 AM – 9:00 PM, Sunday: 10:30 AM – 9:00 PM",PRICE_LEVEL_MODERATE,"banquet_hall, catering_service, asian_restaurant, event_venue, food_delivery, restaurant, food, point_of_interest, establishment",21.3808803,-158.01828
"Signature Inspections Hawai’i, LLC","136 Kahako St, Kailua, HI 96734, USA",5,253,+1 808-388-3425,http://www.signatureinspectionshawaii.com/,"Monday: 7:00 AM – 7:00 PM, Tuesday: 7:00 AM – 7:00 PM, Wednesday: 7:00 AM – 7:00 PM, Thursday: 7:00 AM – 7:00 PM, Friday: 7:00 AM – 7:00 PM, Saturday: 7:00 AM – 7:00 PM, Sunday: 7:00 AM – 7:00 PM",,"consultant, point_of_interest, establishment",21.364366399999998,-157.7372396
Aloha Home Inspections,"590 Farrington Hwy Suite 529 A, Kapolei, HI 96707, USA",5,59,+1 808-636-9032,http://alohahomeinspect.com/,"Monday: Open 24 hours, Tuesday: Open 24 hours, Wednesday: Open 24 hours, Thursday: Open 24 hours, Friday: Open 24 hours, Saturday: Open 24 hours, Sunday: Open 24 hours",,"point_of_interest, establishment",21.3403052,-158.07655119999998
Diamond Head Home Inspections,"4348 Waialae Ave #644, Honolulu, HI 96816, USA",5,1540,+1 808-228-7478,https://www.diamondheadhomeinspections.com/,"Monday: Open 24 hours, Tuesday: Open 24 hours, Wednesday: Open 24 hours, Thursday: Open 24 hours, Friday: Open 24 hours, Saturday: Open 24 hours, Sunday: Open 24 hours",,"point_of_interest, establishment",21.278773299999997,-157.784029
Coastal Home Solutions,"1001 Kamokila Blvd Ste 115, Kapolei, HI 96707, USA",5,164,+1 808-489-7324,https://hicoastalinspections.com/?utm_campaign=gmb,"Monday: 8:00 AM – 5:00 PM, Tuesday: 8:00 AM – 5:00 PM, Wednesday: 8:00 AM – 5:00 PM, Thursday: 8:00 AM – 5:00 PM, Friday: 8:00 AM – 5:00 PM, Saturday: 8:00 AM – 5:00 PM, Sunday: Closed",,"point_of_interest, establishment",21.3341007,-158.08040929999999
"HNL Home Inspections, LLC","523 Pakala St, Honolulu, HI 96825, USA",5,39,+1 808-450-2122,http://www.hnlinspections.com/,"Monday: 8:00 AM – 9:00 PM, Tuesday: 8:00 AM – 9:00 PM, Wednesday: 8:00 AM – 9:00 PM, Thursday: 8:00 AM – 9:00 PM, Friday: 8:00 AM – 9:00 PM, Saturday: 8:00 AM – 9:00 PM, Sunday: 8:00 AM – 9:00 PM",,"point_of_interest, establishment",21.284678000000003,-157.693401
Professional Real Estate Inspectors,"3615 Harding Ave Suite 406, Honolulu, HI 96816, USA",5,2,+1 808-277-6789,http://www.preihawaii.com/,"Monday: 8:00 AM – 5:00 PM, Tuesday: 8:00 AM – 5:00 PM, Wednesday: 8:00 AM – 5:00 PM, Thursday: 8:00 AM – 5:00 PM, Friday: 8:00 AM – 5:00 PM, Saturday: Closed, Sunday: Closed",,"consultant, point_of_interest, establishment",21.2806386,-157.7994012
R.A.M. Inspections,"91-1042 Kaimalie St APT N4, Ewa Beach, HI 96706, USA",5,1,+1 808-284-0826,,"Monday: 9:00 AM – 6:00 PM, Tuesday: 9:00 AM – 6:00 PM, Wednesday: 9:00 AM – 6:00 PM, Thursday: 9:00 AM – 6:00 PM, Friday: 9:00 AM – 6:00 PM, Saturday: 9:00 AM – 6:00 PM, Sunday: 9:00 AM – 6:00 PM",,"point_of_interest, establishment",21.319528899999998,-158.01611
Visionary Real Estate Inspections,"92-923 Welo St, Kapolei, HI 96707, USA",5,1,+1 808-841-9094,,"Monday: 7:00 AM – 5:00 PM, Tuesday: 7:00 AM – 5:00 PM, Wednesday: 7:00 AM – 5:00 PM, Thursday: 7:00 AM – 5:00 PM, Friday: 7:00 AM – 5:00 PM, Saturday: 7:00 AM – 5:00 PM, Sunday: 1:00 – 5:00 PM",,"point_of_interest, establishment",21.357724,-158.0819756
Premier Inspections Hawaii,"41-032 Hilu St, Waimanalo, HI 96795, USA",5,2,+1 808-259-1354,http://www.premierinspectionshawaii.com/,"Monday: 8:00 AM – 6:00 PM, Tuesday: 8:00 AM – 6:00 PM, Wednesday: 8:00 AM – 6:00 PM, Thursday: 8:00 AM – 6:00 PM, Friday: 8:00 AM – 6:00 PM, Saturday: 8:00 AM – 6:00 PM, Sunday: 8:00 AM – 6:00 PM",,"point_of_interest, establishment",21.3365199,-157.6989528
Home Inspection Team Hawaii,"Ewa Beach, HI 96706, USA",,,+1 808-372-4285,http://honolulu-home-inspection.com/,"Monday: 8:00 AM – 7:00 PM, Tuesday: 8:00 AM – 7:00 PM, Wednesday: 8:00 AM – 7:00 PM, Thursday: 8:00 AM – 7:00 PM, Friday: 8:00 AM – 7:00 PM, Saturday: 8:00 AM – 7:00 PM, Sunday: Closed",,"point_of_interest, establishment",21.3155556,-158.0072222
Home Sweet Home Inspections,"400 Hobron Ln, Honolulu, HI 96815, USA",5,3,+1 808-927-9864,https://www.hshhawaii.com/,"Monday: 8:00 AM – 7:00 PM, Tuesday: 8:00 AM – 7:00 PM, Wednesday: 8:00 AM – 7:00 PM, Thursday: 8:00 AM – 7:00 PM, Friday: 8:00 AM – 7:00 PM, Saturday: Closed, Sunday: Closed",,"point_of_interest, establishment",21.2873117,-157.8361263
Aloha Home Inspections,"590 Farrington Hwy Suite 529 A, Kapolei, HI 96707, USA",5,59,+1 808-636-9032,http://alohahomeinspect.com/,"Monday: Open 24 hours, Tuesday: Open 24 hours, Wednesday: Open 24 hours, Thursday: Open 24 hours, Friday: Open 24 hours, Saturday: Open 24 hours, Sunday: Open 24 hours",,"point_of_interest, establishment",21.3403052,-158.07655119999998
Coastal Home Solutions,"1001 Kamokila Blvd Ste 115, Kapolei, HI 96707, USA",5,164,+1 808-489-7324,https://hicoastalinspections.com/?utm_campaign=gmb,"Monday: 8:00 AM – 5:00 PM, Tuesday: 8:00 AM – 5:00 PM, Wednesday: 8:00 AM – 5:00 PM, Thursday: 8:00 AM – 5:00 PM, Friday: 8:00 AM – 5:00 PM, Saturday: 8:00 AM – 5:00 PM, Sunday: Closed",,"point_of_interest, establishment",21.3341007,-158.08040929999999
Quentin Home Inspection,"1231 Crossley Rd, Kapaʻa, HI 96746, USA",5,2,+1 808-855-5280,https://www.quentinllc.com/,"Monday: Open 24 hours, Tuesday: Open 24 hours, Wednesday: Open 24 hours, Thursday: Open 24 hours, Friday: Open 24 hours, Saturday: Open 24 hours, Sunday: Open 24 hours",,"point_of_interest, establishment",22.0702154,-159.36152049999998
Kina'ole Home Inspection Services L.L.C.,"73-5590 Kauhola St #C2, Kailua-Kona, HI 96740, USA",5,21,+1 808-769-0095,http://kinaolehomeinspections.com/,"Monday: 9:00 AM – 7:00 PM, Tuesday: 9:00 AM – 7:00 PM, Wednesday: 9:00 AM – 7:00 PM, Thursday: 9:00 AM – 7:00 PM, Friday: 9:00 AM – 7:00 PM, Saturday: 9:00 AM – 7:00 PM, Sunday: Closed",,"point_of_interest, establishment",19.6886603,-156.018272
Premier Inspections Hawaii,"41-032 Hilu St, Waimanalo, HI 96795, USA",5,2,+1 808-259-1354,http://www.premierinspectionshawaii.com/,"Monday: 8:00 AM – 6:00 PM, Tuesday: 8:00 AM – 6:00 PM, Wednesday: 8:00 AM – 6:00 PM, Thursday: 8:00 AM – 6:00 PM, Friday: 8:00 AM – 6:00 PM, Saturday: 8:00 AM – 6:00 PM, Sunday: 8:00 AM – 6:00 PM",,"point_of_interest, establishment",21.3365199,-157.6989528
KONA COAST INSPECTIONS LLC,"73-1393 Ilio Holo Kai St, Kailua-Kona, HI 96740, USA",5,27,+1 808-765-4099,http://konacoastinspections.com/,"Monday: 8:00 AM – 7:00 PM, Tuesday: 8:00 AM – 7:00 PM, Wednesday: 8:00 AM – 7:00 PM, Thursday: 8:00 AM – 7:00 PM, Friday: 8:00 AM – 7:00 PM, Saturday: 8:00 AM – 7:00 PM, Sunday: 8:00 AM – 7:00 PM",,"point_of_interest, establishment",19.7200323,-155.9839088
Home Inspection Team Hawaii,"Ewa Beach, HI 96706, USA",,,+1 808-372-4285,http://honolulu-home-inspection.com/,"Monday: 8:00 AM – 7:00 PM, Tuesday: 8:00 AM – 7:00 PM, Wednesday: 8:00 AM – 7:00 PM, Thursday: 8:00 AM – 7:00 PM, Friday: 8:00 AM – 7:00 PM, Saturday: 8:00 AM – 7:00 PM, Sunday: Closed",,"point_of_interest, establishment",21.3155556,-158.0072222
R.A.M. Inspections,"91-1042 Kaimalie St APT N4, Ewa Beach, HI 96706, USA",5,1,+1 808-284-0826,,"Monday: 9:00 AM – 6:00 PM, Tuesday: 9:00 AM – 6:00 PM, Wednesday: 9:00 AM – 6:00 PM, Thursday: 9:00 AM – 6:00 PM, Friday: 9:00 AM – 6:00 PM, Saturday: 9:00 AM – 6:00 PM, Sunday: 9:00 AM – 6:00 PM",,"point_of_interest, establishment",21.319528899999998,-158.01611
Kilauea Home Inspections,"1630 Houghtailing St, Honolulu, HI 96817, USA",,,+1 808-841-4663,https://kilaueahomeinspections.com/,"Monday: 8:00 AM – 5:00 PM, Tuesday: 8:00 AM – 5:00 PM, Wednesday: 8:00 AM – 5:00 PM, Thursday: 8:00 AM – 5:00 PM, Friday: 8:00 AM – 5:00 PM, Saturday: 8:00 AM – 12:00 PM, Sunday: Closed",,"point_of_interest, establishment",21.3328357,-157.86569699999998
Home Inspectors Hawaii LLC,"92-8975 Iolani Ln, Ocean View, HI 96737, USA",5,14,+1 808-796-4414,,"Monday: Open 24 hours, Tuesday: Open 24 hours, Wednesday: Open 24 hours, Thursday: Open 24 hours, Friday: Open 24 hours, Saturday: Open 24 hours, Sunday: Open 24 hours",,"point_of_interest, establishment",19.0974389,-155.80004649999998
Kina'ole Home Inspection Services L.L.C.,"73-5590 Kauhola St #C2, Kailua-Kona, HI 96740, USA",5,21,+1 808-769-0095,http://kinaolehomeinspections.com/,"Monday: 9:00 AM – 7:00 PM, Tuesday: 9:00 AM – 7:00 PM, Wednesday: 9:00 AM – 7:00 PM, Thursday: 9:00 AM – 7:00 PM, Friday: 9:00 AM – 7:00 PM, Saturday: 9:00 AM – 7:00 PM, Sunday: Closed",,"point_of_interest, establishment",19.6886603,-156.018272
Diamond Head Home Inspections,"4348 Waialae Ave #644, Honolulu, HI 96816, USA",5,1540,+1 808-228-7478,https://www.diamondheadhomeinspections.com/,"Monday: Open 24 hours, Tuesday: Open 24 hours, Wednesday: Open 24 hours, Thursday: Open 24 hours, Friday: Open 24 hours, Saturday: Open 24 hours, Sunday: Open 24 hours",,"point_of_interest, establishment",21.278773299999997,-157.784029
KONA COAST INSPECTIONS LLC,"73-1393 Ilio Holo Kai St, Kailua-Kona, HI 96740, USA",5,27,+1 808-765-4099,http://konacoastinspections.com/,"Monday: 8:00 AM – 7:00 PM, Tuesday: 8:00 AM – 7:00 PM, Wednesday: 8:00 AM – 7:00 PM, Thursday: 8:00 AM – 7:00 PM, Friday: 8:00 AM – 7:00 PM, Saturday: 8:00 AM – 7:00 PM, Sunday: 8:00 AM – 7:00 PM",,"point_of_interest, establishment",19.7200323,-155.9839088
Aloha Home Inspections,"590 Farrington Hwy Suite 529 A, Kapolei, HI 96707, USA",5,59,+1 808-636-9032,http://alohahomeinspect.com/,"Monday: Open 24 hours, Tuesday: Open 24 hours, Wednesday: Open 24 hours, Thursday: Open 24 hours, Friday: Open 24 hours, Saturday: Open 24 hours, Sunday: Open 24 hours",,"point_of_interest, establishment",21.3403052,-158.07655119999998
Coastal Home Solutions,"1001 Kamokila Blvd Ste 115, Kapolei, HI 96707, USA",5,164,+1 808-489-7324,https://hicoastalinspections.com/?utm_campaign=gmb,"Monday: 8:00 AM – 5:00 PM, Tuesday: 8:00 AM – 5:00 PM, Wednesday: 8:00 AM – 5:00 PM, Thursday: 8:00 AM – 5:00 PM, Friday: 8:00 AM – 5:00 PM, Saturday: 8:00 AM – 5:00 PM, Sunday: Closed",,"point_of_interest, establishment",21.3341007,-158.08040929999999
"Signature Inspections Hawai’i, LLC","136 Kahako St, Kailua, HI 96734, USA",5,253,+1 808-388-3425,http://www.signatureinspectionshawaii.com/,"Monday: 7:00 AM – 7:00 PM, Tuesday: 7:00 AM – 7:00 PM, Wednesday: 7:00 AM – 7:00 PM, Thursday: 7:00 AM – 7:00 PM, Friday: 7:00 AM – 7:00 PM, Saturday: 7:00 AM – 7:00 PM, Sunday: 7:00 AM – 7:00 PM",,"point_of_interest, consultant, establishment",21.364366399999998,-157.7372396
Top Notch Home Inspections LLC,"68-1873 Malina Pl, Waikoloa Village, HI 96738, USA",5,843,+1 808-796-1077,https://hawaiitopnotch.com/,"Monday: 8:00 AM – 5:00 PM, Tuesday: 8:00 AM – 5:00 PM, Wednesday: 8:00 AM – 5:00 PM, Thursday: 8:00 AM – 5:00 PM, Friday: 8:00 AM – 4:00 PM, Saturday: 10:00 AM – 3:00 PM, Sunday: 10:00 AM – 3:00 PM",,"point_of_interest, establishment",19.946649,-155.78083999999998
Professional Real Estate Inspectors,"3615 Harding Ave Suite 406, Honolulu, HI 96816, USA",5,2,+1 808-277-6789,http://www.preihawaii.com/,"Monday: 8:00 AM – 5:00 PM, Tuesday: 8:00 AM – 5:00 PM, Wednesday: 8:00 AM – 5:00 PM, Thursday: 8:00 AM – 5:00 PM, Friday: 8:00 AM – 5:00 PM, Saturday: Closed, Sunday: Closed",,"point_of_interest, consultant, establishment",21.2806386,-157.7994012
Inspections Kauai LLC,"2502 B Puu Rd, Kalaheo, HI 96741, USA",5,97,+1 808-635-5082,http://inspectionskauai.com/,"Monday: 8:00 AM – 5:00 PM, Tuesday: 8:00 AM – 5:00 PM, Wednesday: 8:00 AM – 5:00 PM, Thursday: 8:00 AM – 5:00 PM, Friday: 8:00 AM – 5:00 PM, Saturday: Closed, Sunday: Closed",,"point_of_interest, establishment",21.9223858,-159.5260294
Quentin Home Inspection,"1231 Crossley Rd, Kapaʻa, HI 96746, USA",5,2,+1 808-855-5280,https://www.quentinllc.com/,"Monday: Open 24 hours, Tuesday: Open 24 hours, Wednesday: Open 24 hours, Thursday: Open 24 hours, Friday: Open 24 hours, Saturday: Open 24 hours, Sunday: Open 24 hours",,"point_of_interest, establishment",22.0702154,-159.36152049999998
Coastal Home Solutions,"1001 Kamokila Blvd Ste 115, Kapolei, HI 96707, USA",5,164,+1 808-489-7324,https://hicoastalinspections.com/?utm_campaign=gmb,"Monday: 8:00 AM – 5:00 PM, Tuesday: 8:00 AM – 5:00 PM, Wednesday: 8:00 AM – 5:00 PM, Thursday: 8:00 AM – 5:00 PM, Friday: 8:00 AM – 5:00 PM, Saturday: 8:00 AM – 5:00 PM, Sunday: Closed",,"point_of_interest, establishment",21.3341007,-158.08040929999999
Kauai Home Inspection,"1966 Pāhoehoe St, Koloa, HI 96756, USA",5,1,+1 808-283-9071,,"Monday: 9:00 AM – 5:00 PM, Tuesday: 9:00 AM – 5:00 PM, Wednesday: 9:00 AM – 5:00 PM, Thursday: 9:00 AM – 5:00 PM, Friday: 9:00 AM – 5:00 PM, Saturday: 9:00 AM – 5:00 PM, Sunday: 9:00 AM – 5:00 PM",,"point_of_interest, establishment",21.882568799999998,-159.4509182
Aloha Home Inspections,"590 Farrington Hwy Suite 529 A, Kapolei, HI 96707, USA",5,59,+1 808-636-9032,http://alohahomeinspect.com/,"Monday: Open 24 hours, Tuesday: Open 24 hours, Wednesday: Open 24 hours, Thursday: Open 24 hours, Friday: Open 24 hours, Saturday: Open 24 hours, Sunday: Open 24 hours",,"point_of_interest, establishment",21.3403052,-158.07655119999998
"Signature Inspections Hawai’i, LLC","136 Kahako St, Kailua, HI 96734, USA",5,253,+1 808-388-3425,http://www.signatureinspectionshawaii.com/,"Monday: 7:00 AM – 7:00 PM, Tuesday: 7:00 AM – 7:00 PM, Wednesday: 7:00 AM – 7:00 PM, Thursday: 7:00 AM – 7:00 PM, Friday: 7:00 AM – 7:00 PM, Saturday: 7:00 AM – 7:00 PM, Sunday: 7:00 AM – 7:00 PM",,"consultant, point_of_interest, establishment",21.364366399999998,-157.7372396
Rock Solid Home Inspections LLC (Hawaii),"55-3309 Pu'u Mamo Dr, Hawi, HI 96719, USA",5,93,+1 808-895-4952,https://www.rshomeinspections.com/,"Monday: 8:00 AM – 6:00 PM, Tuesday: 8:00 AM – 6:00 PM, Wednesday: 8:00 AM – 6:00 PM, Thursday: 8:00 AM – 6:00 PM, Friday: 8:00 AM – 6:00 PM, Saturday: 8:00 AM – 6:00 PM, Sunday: 8:00 AM – 6:00 PM",,"point_of_interest, establishment",20.215830399999998,-155.8388439
Kina'ole Home Inspection Services L.L.C.,"73-5590 Kauhola St #C2, Kailua-Kona, HI 96740, USA",5,21,+1 808-769-0095,http://kinaolehomeinspections.com/,"Monday: 9:00 AM – 7:00 PM, Tuesday: 9:00 AM – 7:00 PM, Wednesday: 9:00 AM – 7:00 PM, Thursday: 9:00 AM – 7:00 PM, Friday: 9:00 AM – 7:00 PM, Saturday: 9:00 AM – 7:00 PM, Sunday: Closed",,"point_of_interest, establishment",19.6886603,-156.018272
Pono Home Inspections,"PO Box 703, Waimea, HI 96796, USA",,,+1 808-635-3047,,,,"point_of_interest, establishment",21.9586111,-159.6708333
Top Notch Home Inspections LLC,"68-1873 Malina Pl, Waikoloa Village, HI 96738, USA",5,843,+1 808-796-1077,https://hawaiitopnotch.com/,"Monday: 8:00 AM – 5:00 PM, Tuesday: 8:00 AM – 5:00 PM, Wednesday: 8:00 AM – 5:00 PM, Thursday: 8:00 AM – 5:00 PM, Friday: 8:00 AM – 4:00 PM, Saturday: 10:00 AM – 3:00 PM, Sunday: 10:00 AM – 3:00 PM",,"point_of_interest, establishment",19.946649,-155.78083999999998
Coastal Home Solutions,"1001 Kamokila Blvd Ste 115, Kapolei, HI 96707, USA",5,164,+1 808-489-7324,https://hicoastalinspections.com/?utm_campaign=gmb,"Monday: 8:00 AM – 5:00 PM, Tuesday: 8:00 AM – 5:00 PM, Wednesday: 8:00 AM – 5:00 PM, Thursday: 8:00 AM – 5:00 PM, Friday: 8:00 AM – 5:00 PM, Saturday: 8:00 AM – 5:00 PM, Sunday: Closed",,"point_of_interest, establishment",21.3341007,-158.08040929999999
Aloha Home Inspections,"590 Farrington Hwy Suite 529 A, Kapolei, HI 96707, USA",5,59,+1 808-636-9032,http://alohahomeinspect.com/,"Monday: Open 24 hours, Tuesday: Open 24 hours, Wednesday: Open 24 hours, Thursday: Open 24 hours, Friday: Open 24 hours, Saturday: Open 24 hours, Sunday: Open 24 hours",,"point_of_interest, establishment",21.3403052,-158.07655119999998
R.A.M. Inspections,"91-1042 Kaimalie St APT N4, Ewa Beach, HI 96706, USA",5,1,+1 808-284-0826,,"Monday: 9:00 AM – 6:00 PM, Tuesday: 9:00 AM – 6:00 PM, Wednesday: 9:00 AM – 6:00 PM, Thursday: 9:00 AM – 6:00 PM, Friday: 9:00 AM – 6:00 PM, Saturday: 9:00 AM – 6:00 PM, Sunday: 9:00 AM – 6:00 PM",,"point_of_interest, establishment",21.319528899999998,-158.01611
Diamond Head Home Inspections,"4348 Waialae Ave #644, Honolulu, HI 96816, USA",5,1540,+1 808-228-7478,https://www.diamondheadhomeinspections.com/,"Monday: Open 24 hours, Tuesday: Open 24 hours, Wednesday: Open 24 hours, Thursday: Open 24 hours, Friday: Open 24 hours, Saturday: Open 24 hours, Sunday: Open 24 hours",,"point_of_interest, establishment",21.278773299999997,-157.784029
Golden home inspections,"6388B 101st St, Ewa Beach, HI 96706, USA",,,+1 808-570-7577,https://golden-homeinspections.com/,"Monday: 7:00 AM – 7:00 PM, Tuesday: 7:00 AM – 7:00 PM, Wednesday: 7:00 AM – 7:00 PM, Thursday: 7:00 AM – 7:00 PM, Friday: 7:00 AM – 7:00 PM, Saturday: 7:00 AM – 7:00 PM, Sunday: 7:00 AM – 7:00 PM",,"point_of_interest, establishment",21.324976,-157.983688
Home Inspection Team Hawaii,"Ewa Beach, HI 96706, USA",,,+1 808-372-4285,http://honolulu-home-inspection.com/,"Monday: 8:00 AM – 7:00 PM, Tuesday: 8:00 AM – 7:00 PM, Wednesday: 8:00 AM – 7:00 PM, Thursday: 8:00 AM – 7:00 PM, Friday: 8:00 AM – 7:00 PM, Saturday: 8:00 AM – 7:00 PM, Sunday: Closed",,"point_of_interest, establishment",21.3155556,-158.0072222
Visionary Real Estate Inspections,"92-923 Welo St, Kapolei, HI 96707, USA",5,1,+1 808-841-9094,,"Monday: 7:00 AM – 5:00 PM, Tuesday: 7:00 AM – 5:00 PM, Wednesday: 7:00 AM – 5:00 PM, Thursday: 7:00 AM – 5:00 PM, Friday: 7:00 AM – 5:00 PM, Saturday: 7:00 AM – 5:00 PM, Sunday: 1:00 – 5:00 PM",,"point_of_interest, establishment",21.357724,-158.0819756
"Signature Inspections Hawai’i, LLC","136 Kahako St, Kailua, HI 96734, USA",5,253,+1 808-388-3425,http://www.signatureinspectionshawaii.com/,"Monday: 7:00 AM – 7:00 PM, Tuesday: 7:00 AM – 7:00 PM, Wednesday: 7:00 AM – 7:00 PM, Thursday: 7:00 AM – 7:00 PM, Friday: 7:00 AM – 7:00 PM, Saturday: 7:00 AM – 7:00 PM, Sunday: 7:00 AM – 7:00 PM",,"consultant, point_of_interest, establishment",21.364366399999998,-157.7372396
Professional Real Estate Inspectors,"3615 Harding Ave Suite 406, Honolulu, HI 96816, USA",5,2,+1 808-277-6789,http://www.preihawaii.com/,"Monday: 8:00 AM – 5:00 PM, Tuesday: 8:00 AM – 5:00 PM, Wednesday: 8:00 AM – 5:00 PM, Thursday: 8:00 AM – 5:00 PM, Friday: 8:00 AM – 5:00 PM, Saturday: Closed, Sunday: Closed",,"consultant, point_of_interest, establishment",21.2806386,-157.7994012
Coastal Home Solutions,"1001 Kamokila Blvd Ste 115, Kapolei, HI 96707, USA",5,164,+1 808-489-7324,https://hicoastalinspections.com/?utm_campaign=gmb,"Monday: 8:00 AM – 5:00 PM, Tuesday: 8:00 AM – 5:00 PM, Wednesday: 8:00 AM – 5:00 PM, Thursday: 8:00 AM – 5:00 PM, Friday: 8:00 AM – 5:00 PM, Saturday: 8:00 AM – 5:00 PM, Sunday: Closed",,"point_of_interest, establishment",21.3341007,-158.08040929999999
Aloha Home Inspections,"590 Farrington Hwy Suite 529 A, Kapolei, HI 96707, USA",5,59,+1 808-636-9032,http://alohahomeinspect.com/,"Monday: Open 24 hours, Tuesday: Open 24 hours, Wednesday: Open 24 hours, Thursday: Open 24 hours, Friday: Open 24 hours, Saturday: Open 24 hours, Sunday: Open 24 hours",,"point_of_interest, establishment",21.3403052,-158.07655119999998
Visionary Real Estate Inspections,"92-923 Welo St, Kapolei, HI 96707, USA",5,1,+1 808-841-9094,,"Monday: 7:00 AM – 5:00 PM, Tuesday: 7:00 AM – 5:00 PM, Wednesday: 7:00 AM – 5:00 PM, Thursday: 7:00 AM – 5:00 PM, Friday: 7:00 AM – 5:00 PM, Saturday: 7:00 AM – 5:00 PM, Sunday: 1:00 – 5:00 PM",,"point_of_interest, establishment",21.357724,-158.0819756
Diamond Head Home Inspections,"4348 Waialae Ave #644, Honolulu, HI 96816, USA",5,1540,+1 808-228-7478,https://www.diamondheadhomeinspections.com/,"Monday: Open 24 hours, Tuesday: Open 24 hours, Wednesday: Open 24 hours, Thursday: Open 24 hours, Friday: Open 24 hours, Saturday: Open 24 hours, Sunday: Open 24 hours",,"point_of_interest, establishment",21.278773299999997,-157.784029
R.A.M. Inspections,"91-1042 Kaimalie St APT N4, Ewa Beach, HI 96706, USA",5,1,+1 808-284-0826,,"Monday: 9:00 AM – 6:00 PM, Tuesday: 9:00 AM – 6:00 PM, Wednesday: 9:00 AM – 6:00 PM, Thursday: 9:00 AM – 6:00 PM, Friday: 9:00 AM – 6:00 PM, Saturday: 9:00 AM – 6:00 PM, Sunday: 9:00 AM – 6:00 PM",,"point_of_interest, establishment",21.319528899999998,-158.01611
"Signature Inspections Hawai’i, LLC","136 Kahako St, Kailua, HI 96734, USA",5,253,+1 808-388-3425,http://www.signatureinspectionshawaii.com/,"Monday: 7:00 AM – 7:00 PM, Tuesday: 7:00 AM – 7:00 PM, Wednesday: 7:00 AM – 7:00 PM, Thursday: 7:00 AM – 7:00 PM, Friday: 7:00 AM – 7:00 PM, Saturday: 7:00 AM – 7:00 PM, Sunday: 7:00 AM – 7:00 PM",,"consultant, point_of_interest, establishment",21.364366399999998,-157.7372396
Home Inspection Team Hawaii,"Ewa Beach, HI 96706, USA",,,+1 808-372-4285,http://honolulu-home-inspection.com/,"Monday: 8:00 AM – 7:00 PM, Tuesday: 8:00 AM – 7:00 PM, Wednesday: 8:00 AM – 7:00 PM, Thursday: 8:00 AM – 7:00 PM, Friday: 8:00 AM – 7:00 PM, Saturday: 8:00 AM – 7:00 PM, Sunday: Closed",,"point_of_interest, establishment",21.3155556,-158.0072222
Professional Real Estate Inspectors,"3615 Harding Ave Suite 406, Honolulu, HI 96816, USA",5,2,+1 808-277-6789,http://www.preihawaii.com/,"Monday: 8:00 AM – 5:00 PM, Tuesday: 8:00 AM – 5:00 PM, Wednesday: 8:00 AM – 5:00 PM, Thursday: 8:00 AM – 5:00 PM, Friday: 8:00 AM – 5:00 PM, Saturday: Closed, Sunday: Closed",,"consultant, point_of_interest, establishment",21.2806386,-157.7994012
Golden home inspections,"6388B 101st St, Ewa Beach, HI 96706, USA",,,+1 808-570-7577,https://golden-homeinspections.com/,"Monday: 7:00 AM – 7:00 PM, Tuesday: 7:00 AM – 7:00 PM, Wednesday: 7:00 AM – 7:00 PM, Thursday: 7:00 AM – 7:00 PM, Friday: 7:00 AM – 7:00 PM, Saturday: 7:00 AM – 7:00 PM, Sunday: 7:00 AM – 7:00 PM",,"point_of_interest, establishment",21.324976,-157.983688
"HNL Home Inspections, LLC","523 Pakala St, Honolulu, HI 96825, USA",5,39,+1 808-450-2122,http://www.hnlinspections.com/,"Monday: 8:00 AM – 9:00 PM, Tuesday: 8:00 AM – 9:00 PM, Wednesday: 8:00 AM – 9:00 PM, Thursday: 8:00 AM – 9:00 PM, Friday: 8:00 AM – 9:00 PM, Saturday: 8:00 AM – 9:00 PM, Sunday: 8:00 AM – 9:00 PM",,"point_of_interest, establishment",21.284678000000003,-157.693401
ASMHI Inc (A Sound Mind Home Inspection),"3466 Akala Dr, Kihei, HI 96753, USA",4.9,54,+1 808-879-4166,http://www.asmhi.com/,"Monday: 8:30 AM – 4:30 PM, Tuesday: 8:30 AM – 4:30 PM, Wednesday: 8:30 AM – 4:30 PM, Thursday: 8:30 AM – 4:30 PM, Friday: 8:30 AM – 4:30 PM, Saturday: Closed, Sunday: Closed",,"point_of_interest, establishment",20.694457,-156.4312151
All Valley Home Inspections,"1894 Anapa Pl, Kihei, HI 96753, USA",5,15,+1 808-866-8367,http://www.allvalleyhi.com/,"Monday: 8:00 AM – 8:00 PM, Tuesday: 8:00 AM – 8:00 PM, Wednesday: 8:00 AM – 8:00 PM, Thursday: 8:00 AM – 8:00 PM, Friday: 8:00 AM – 8:00 PM, Saturday: 8:00 AM – 8:00 PM, Sunday: 8:00 AM – 8:00 PM",,"point_of_interest, establishment",20.7330663,-156.4486102
Mana Home Inspections,"2058 Kanoe St, Kihei, HI 96753, USA",4.9,66,+1 808-419-8029,http://manahomeinspections.com/,"Monday: 7:00 AM – 7:00 PM, Tuesday: 7:00 AM – 7:00 PM, Wednesday: 7:00 AM – 7:00 PM, Thursday: 7:00 AM – 7:00 PM, Friday: 7:00 AM – 7:00 PM, Saturday: 7:00 AM – 7:00 PM, Sunday: 7:00 AM – 7:00 PM",,"point_of_interest, establishment",20.7289185,-156.44985269999998
Maui360 Home Inspections,"2595 Mikoi Pl, Kihei, HI 96753, USA",5,21,+1 808-866-3349,http://maui360inspections.com/,"Monday: 8:00 AM – 5:00 PM, Tuesday: 8:00 AM – 5:00 PM, Wednesday: 8:00 AM – 5:00 PM, Thursday: 8:00 AM – 5:00 PM, Friday: 8:00 AM – 5:00 PM, Saturday: 8:00 AM – 3:00 PM, Sunday: Closed",,"point_of_interest, establishment",20.7155882,-156.44131059999998
Hawaii Inspection Group Inc,"95 E Lipoa St, Kihei, HI 96753, USA",3.9,7,+1 808-879-6000,http://www.hawaiiinspectiongroup.com/,"Monday: 9:00 AM – 4:00 PM, Tuesday: 9:00 AM – 4:00 PM, Wednesday: 9:00 AM – 4:00 PM, Thursday: 9:00 AM – 4:00 PM, Friday: 9:00 AM – 4:00 PM, Saturday: Closed, Sunday: Closed",,"point_of_interest, establishment",20.7484787,-156.4525071
Aloha Home Inspections,"590 Farrington Hwy Suite 529 A, Kapolei, HI 96707, USA",5,59,+1 808-636-9032,http://alohahomeinspect.com/,"Monday: Open 24 hours, Tuesday: Open 24 hours, Wednesday: Open 24 hours, Thursday: Open 24 hours, Friday: Open 24 hours, Saturday: Open 24 hours, Sunday: Open 24 hours",,"point_of_interest, establishment",21.3403052,-158.07655119999998
"Signature Inspections Hawai’i, LLC","136 Kahako St, Kailua, HI 96734, USA",5,253,+1 808-388-3425,http://www.signatureinspectionshawaii.com/,"Monday: 7:00 AM – 7:00 PM, Tuesday: 7:00 AM – 7:00 PM, Wednesday: 7:00 AM – 7:00 PM, Thursday: 7:00 AM – 7:00 PM, Friday: 7:00 AM – 7:00 PM, Saturday: 7:00 AM – 7:00 PM, Sunday: 7:00 AM – 7:00 PM",,"consultant, point_of_interest, establishment",21.364366399999998,-157.7372396
Kukui Home Inspection,"484 Kaiwahine St, Kihei, HI 96753, USA",5,4,+1 808-937-9085,https://kukuihomeinspection.com/,"Monday: 7:00 AM – 7:00 PM, Tuesday: 7:00 AM – 7:00 PM, Wednesday: 7:00 AM – 7:00 PM, Thursday: 7:00 AM – 7:00 PM, Friday: 7:00 AM – 7:00 PM, Saturday: 7:00 AM – 7:00 PM, Sunday: Closed",,"point_of_interest, establishment",20.78003,-156.44923799999998
Coastal Home Solutions,"1001 Kamokila Blvd Ste 115, Kapolei, HI 96707, USA",5,164,+1 808-489-7324,https://hicoastalinspections.com/?utm_campaign=gmb,"Monday: 8:00 AM – 5:00 PM, Tuesday: 8:00 AM – 5:00 PM, Wednesday: 8:00 AM – 5:00 PM, Thursday: 8:00 AM – 5:00 PM, Friday: 8:00 AM – 5:00 PM, Saturday: 8:00 AM – 5:00 PM, Sunday: Closed",,"point_of_interest, establishment",21.3341007,-158.08040929999999
Top Notch Home Inspections LLC,"68-1873 Malina Pl, Waikoloa Village, HI 96738, USA",5,843,+1 808-796-1077,https://hawaiitopnotch.com/,"Monday: 8:00 AM – 5:00 PM, Tuesday: 8:00 AM – 5:00 PM, Wednesday: 8:00 AM – 5:00 PM, Thursday: 8:00 AM – 5:00 PM, Friday: 8:00 AM – 4:00 PM, Saturday: 10:00 AM – 3:00 PM, Sunday: 10:00 AM – 3:00 PM",,"point_of_interest, establishment",19.946649,-155.78083999999998
Mark Thorman Home Inspections,"198 Mehani Cir, Kihei, HI 96753, USA",5,1,+1 808-874-3456,,"Monday: 9:00 AM – 5:00 PM, Tuesday: 9:00 AM – 5:00 PM, Wednesday: 9:00 AM – 5:00 PM, Thursday: 9:00 AM – 5:00 PM, Friday: 9:00 AM – 5:00 PM, Saturday: 9:00 AM – 12:00 PM, Sunday: Closed",,"point_of_interest, establishment",20.7366973,-156.44772659999998
Homeworks Advantage Inspections,"3950 Kalai Waa St R201, Kihei, HI 96753, USA",5,1,+1 808-868-5225,https://homeworksadvantage.com/,"Monday: 8:00 AM – 8:00 PM, Tuesday: 8:00 AM – 8:00 PM, Wednesday: 8:00 AM – 8:00 PM, Thursday: 8:00 AM – 8:00 PM, Friday: 8:00 AM – 8:00 PM, Saturday: 8:00 AM – 8:00 PM, Sunday: 8:00 AM – 8:00 PM",,"point_of_interest, establishment",20.6832879,-156.4331252
Paul L Signore Building Inspctn,"Kula, HI 96790, USA",5,1,+1 808-876-0170,,,,"point_of_interest, establishment",20.790969699999998,-156.3269338
Maui Home Inspections,"2102 Kaupakalua Rd, Haiku, HI 96708, USA",,,+1 920-342-6063,,"Monday: 8:00 AM – 6:00 PM, Tuesday: 8:00 AM – 6:00 PM, Wednesday: 8:00 AM – 6:00 PM, Thursday: 8:00 AM – 6:00 PM, Friday: 8:00 AM – 6:00 PM, Saturday: 9:00 AM – 5:00 PM, Sunday: Closed",,"point_of_interest, establishment",20.88536,-156.300649
All Island Home Inspections,"PO Box 1456, Puunene, HI 96784, USA",5,1,+1 808-877-3366,,,,"point_of_interest, establishment",20.8694714,-156.4540958
Coastal Home Solutions,"1001 Kamokila Blvd Ste 115, Kapolei, HI 96707, USA",5,164,+1 808-489-7324,https://hicoastalinspections.com/?utm_campaign=gmb,"Monday: 8:00 AM – 5:00 PM, Tuesday: 8:00 AM – 5:00 PM, Wednesday: 8:00 AM – 5:00 PM, Thursday: 8:00 AM – 5:00 PM, Friday: 8:00 AM – 5:00 PM, Saturday: 8:00 AM – 5:00 PM, Sunday: Closed",,"point_of_interest, establishment",21.3341007,-158.08040929999999
Aloha Home Inspections,"590 Farrington Hwy Suite 529 A, Kapolei, HI 96707, USA",5,59,+1 808-636-9032,http://alohahomeinspect.com/,"Monday: Open 24 hours, Tuesday: Open 24 hours, Wednesday: Open 24 hours, Thursday: Open 24 hours, Friday: Open 24 hours, Saturday: Open 24 hours, Sunday: Open 24 hours",,"point_of_interest, establishment",21.3403052,-158.07655119999998
Visionary Real Estate Inspections,"92-923 Welo St, Kapolei, HI 96707, USA",5,1,+1 808-841-9094,,"Monday: 7:00 AM – 5:00 PM, Tuesday: 7:00 AM – 5:00 PM, Wednesday: 7:00 AM – 5:00 PM, Thursday: 7:00 AM – 5:00 PM, Friday: 7:00 AM – 5:00 PM, Saturday: 7:00 AM – 5:00 PM, Sunday: 1:00 – 5:00 PM",,"point_of_interest, establishment",21.357724,-158.0819756
R.A.M. Inspections,"91-1042 Kaimalie St APT N4, Ewa Beach, HI 96706, USA",5,1,+1 808-284-0826,,"Monday: 9:00 AM – 6:00 PM, Tuesday: 9:00 AM – 6:00 PM, Wednesday: 9:00 AM – 6:00 PM, Thursday: 9:00 AM – 6:00 PM, Friday: 9:00 AM – 6:00 PM, Saturday: 9:00 AM – 6:00 PM, Sunday: 9:00 AM – 6:00 PM",,"point_of_interest, establishment",21.319528899999998,-158.01611
Diamond Head Home Inspections,"4348 Waialae Ave #644, Honolulu, HI 96816, USA",5,1540,+1 808-228-7478,https://www.diamondheadhomeinspections.com/,"Monday: Open 24 hours, Tuesday: Open 24 hours, Wednesday: Open 24 hours, Thursday: Open 24 hours, Friday: Open 24 hours, Saturday: Open 24 hours, Sunday: Open 24 hours",,"point_of_interest, establishment",21.278773299999997,-157.784029
Home Inspection Team Hawaii,"Ewa Beach, HI 96706, USA",,,+1 808-372-4285,http://honolulu-home-inspection.com/,"Monday: 8:00 AM – 7:00 PM, Tuesday: 8:00 AM – 7:00 PM, Wednesday: 8:00 AM – 7:00 PM, Thursday: 8:00 AM – 7:00 PM, Friday: 8:00 AM – 7:00 PM, Saturday: 8:00 AM – 7:00 PM, Sunday: Closed",,"point_of_interest, establishment",21.3155556,-158.0072222
"Signature Inspections Hawai’i, LLC","136 Kahako St, Kailua, HI 96734, USA",5,253,+1 808-388-3425,http://www.signatureinspectionshawaii.com/,"Monday: 7:00 AM – 7:00 PM, Tuesday: 7:00 AM – 7:00 PM, Wednesday: 7:00 AM – 7:00 PM, Thursday: 7:00 AM – 7:00 PM, Friday: 7:00 AM – 7:00 PM, Saturday: 7:00 AM – 7:00 PM, Sunday: 7:00 AM – 7:00 PM",,"consultant, point_of_interest, establishment",21.364366399999998,-157.7372396
Golden home inspections,"6388B 101st St, Ewa Beach, HI 96706, USA",,,+1 808-570-7577,https://golden-homeinspections.com/,"Monday: 7:00 AM – 7:00 PM, Tuesday: 7:00 AM – 7:00 PM, Wednesday: 7:00 AM – 7:00 PM, Thursday: 7:00 AM – 7:00 PM, Friday: 7:00 AM – 7:00 PM, Saturday: 7:00 AM – 7:00 PM, Sunday: 7:00 AM – 7:00 PM",,"point_of_interest, establishment",21.324976,-157.983688
Diamond Head Home Inspections,"4348 Waialae Ave #644, Honolulu, HI 96816, USA",5,1540,+1 808-228-7478,https://www.diamondheadhomeinspections.com/,"Monday: Open 24 hours, Tuesday: Open 24 hours, Wednesday: Open 24 hours, Thursday: Open 24 hours, Friday: Open 24 hours, Saturday: Open 24 hours, Sunday: Open 24 hours",,"point_of_interest, establishment",21.278773299999997,-157.784029
Aloha Home Inspections,"590 Farrington Hwy Suite 529 A, Kapolei, HI 96707, USA",5,59,+1 808-636-9032,http://alohahomeinspect.com/,"Monday: Open 24 hours, Tuesday: Open 24 hours, Wednesday: Open 24 hours, Thursday: Open 24 hours, Friday: Open 24 hours, Saturday: Open 24 hours, Sunday: Open 24 hours",,"point_of_interest, establishment",21.3403052,-158.07655119999998
Coastal Home Solutions,"1001 Kamokila Blvd Ste 115, Kapolei, HI 96707, USA",5,164,+1 808-489-7324,https://hicoastalinspections.com/?utm_campaign=gmb,"Monday: 8:00 AM – 5:00 PM, Tuesday: 8:00 AM – 5:00 PM, Wednesday: 8:00 AM – 5:00 PM, Thursday: 8:00 AM – 5:00 PM, Friday: 8:00 AM – 5:00 PM, Saturday: 8:00 AM – 5:00 PM, Sunday: Closed",,"point_of_interest, establishment",21.3341007,-158.08040929999999
Top Notch Home Inspections LLC,"68-1873 Malina Pl, Waikoloa Village, HI 96738, USA",5,843,+1 808-796-1077,https://hawaiitopnotch.com/,"Monday: 8:00 AM – 5:00 PM, Tuesday: 8:00 AM – 5:00 PM, Wednesday: 8:00 AM – 5:00 PM, Thursday: 8:00 AM – 5:00 PM, Friday: 8:00 AM – 4:00 PM, Saturday: 10:00 AM – 3:00 PM, Sunday: 10:00 AM – 3:00 PM",,"point_of_interest, establishment",19.946649,-155.78083999999998
"Signature Inspections Hawai’i, LLC","136 Kahako St, Kailua, HI 96734, USA",5,253,+1 808-388-3425,http://www.signatureinspectionshawaii.com/,"Monday: 7:00 AM – 7:00 PM, Tuesday: 7:00 AM – 7:00 PM, Wednesday: 7:00 AM – 7:00 PM, Thursday: 7:00 AM – 7:00 PM, Friday: 7:00 AM – 7:00 PM, Saturday: 7:00 AM – 7:00 PM, Sunday: 7:00 AM – 7:00 PM",,"point_of_interest, consultant, establishment",21.364366399999998,-157.7372396
Ash The Home Inspector,"27-111 Hikina Pl, Hilo, HI 96720, USA",5,18,+1 808-348-9371,https://www.ashthehomeinspector.com/,"Monday: Open 24 hours, Tuesday: Open 24 hours, Wednesday: Open 24 hours, Thursday: Open 24 hours, Friday: Open 24 hours, Saturday: Open 24 hours, Sunday: Open 24 hours",,"point_of_interest, establishment",19.7698498,-155.0920174
Elite Inspection Services LLC,"1100 Lei Hinahina Pl, Hilo, HI 96720, USA",5,12,+1 808-756-4668,http://www.eliteinspectionservices.net/,"Monday: 8:00 AM – 5:00 PM, Tuesday: 8:00 AM – 5:00 PM, Wednesday: 8:00 AM – 5:00 PM, Thursday: 8:00 AM – 5:00 PM, Friday: 8:00 AM – 5:00 PM, Saturday: 8:00 AM – 5:00 PM, Sunday: Closed",,"point_of_interest, establishment",19.712613299999997,-155.12195939999998
"HNL Home Inspections, LLC","523 Pakala St, Honolulu, HI 96825, USA",5,39,+1 808-450-2122,http://www.hnlinspections.com/,"Monday: 8:00 AM – 9:00 PM, Tuesday: 8:00 AM – 9:00 PM, Wednesday: 8:00 AM – 9:00 PM, Thursday: 8:00 AM – 9:00 PM, Friday: 8:00 AM – 9:00 PM, Saturday: 8:00 AM – 9:00 PM, Sunday: 8:00 AM – 9:00 PM",,"point_of_interest, establishment",21.284678000000003,-157.693401
Hilo Home Inspection LLC,"614 Kilauea Ave 101- 20, Hilo, HI 96720, USA",5,7,+1 808-765-9584,https://hilohomeinspection.com/,"Monday: 8:00 AM – 6:00 PM, Tuesday: 8:00 AM – 6:00 PM, Wednesday: 8:00 AM – 6:00 PM, Thursday: 8:00 AM – 6:00 PM, Friday: 8:00 AM – 6:00 PM, Saturday: 8:00 AM – 4:00 PM, Sunday: Closed",,"point_of_interest, establishment",19.717814,-155.0809208
Professional Real Estate Inspectors,"3615 Harding Ave Suite 406, Honolulu, HI 96816, USA",5,2,+1 808-277-6789,http://www.preihawaii.com/,"Monday: 8:00 AM – 5:00 PM, Tuesday: 8:00 AM – 5:00 PM, Wednesday: 8:00 AM – 5:00 PM, Thursday: 8:00 AM – 5:00 PM, Friday: 8:00 AM – 5:00 PM, Saturday: Closed, Sunday: Closed",,"point_of_interest, consultant, establishment",21.2806386,-157.7994012
Coastal Home Solutions,"1001 Kamokila Blvd Ste 115, Kapolei, HI 96707, USA",5,164,+1 808-489-7324,https://hicoastalinspections.com/?utm_campaign=gmb,"Monday: 8:00 AM – 5:00 PM, Tuesday: 8:00 AM – 5:00 PM, Wednesday: 8:00 AM – 5:00 PM, Thursday: 8:00 AM – 5:00 PM, Friday: 8:00 AM – 5:00 PM, Saturday: 8:00 AM – 5:00 PM, Sunday: Closed",,"point_of_interest, establishment",21.3341007,-158.08040929999999
Aloha Home Inspections,"590 Farrington Hwy Suite 529 A, Kapolei, HI 96707, USA",5,59,+1 808-636-9032,http://alohahomeinspect.com/,"Monday: Open 24 hours, Tuesday: Open 24 hours, Wednesday: Open 24 hours, Thursday: Open 24 hours, Friday: Open 24 hours, Saturday: Open 24 hours, Sunday: Open 24 hours",,"point_of_interest, establishment",21.3403052,-158.07655119999998
Diamond Head Home Inspections,"4348 Waialae Ave #644, Honolulu, HI 96816, USA",5,1540,+1 808-228-7478,https://www.diamondheadhomeinspections.com/,"Monday: Open 24 hours, Tuesday: Open 24 hours, Wednesday: Open 24 hours, Thursday: Open 24 hours, Friday: Open 24 hours, Saturday: Open 24 hours, Sunday: Open 24 hours",,"point_of_interest, establishment",21.278773299999997,-157.784029
"Signature Inspections Hawai’i, LLC","136 Kahako St, Kailua, HI 96734, USA",5,253,+1 808-388-3425,http://www.signatureinspectionshawaii.com/,"Monday: 7:00 AM – 7:00 PM, Tuesday: 7:00 AM – 7:00 PM, Wednesday: 7:00 AM – 7:00 PM, Thursday: 7:00 AM – 7:00 PM, Friday: 7:00 AM – 7:00 PM, Saturday: 7:00 AM – 7:00 PM, Sunday: 7:00 AM – 7:00 PM",,"consultant, point_of_interest, establishment",21.364366399999998,-157.7372396
Visionary Real Estate Inspections,"92-923 Welo St, Kapolei, HI 96707, USA",5,1,+1 808-841-9094,,"Monday: 7:00 AM – 5:00 PM, Tuesday: 7:00 AM – 5:00 PM, Wednesday: 7:00 AM – 5:00 PM, Thursday: 7:00 AM – 5:00 PM, Friday: 7:00 AM – 5:00 PM, Saturday: 7:00 AM – 5:00 PM, Sunday: 1:00 – 5:00 PM",,"point_of_interest, establishment",21.357724,-158.0819756
"HNL Home Inspections, LLC","523 Pakala St, Honolulu, HI 96825, USA",5,39,+1 808-450-2122,http://www.hnlinspections.com/,"Monday: 8:00 AM – 9:00 PM, Tuesday: 8:00 AM – 9:00 PM, Wednesday: 8:00 AM – 9:00 PM, Thursday: 8:00 AM – 9:00 PM, Friday: 8:00 AM – 9:00 PM, Saturday: 8:00 AM – 9:00 PM, Sunday: 8:00 AM – 9:00 PM",,"point_of_interest, establishment",21.284678000000003,-157.693401
Home Inspection Team Hawaii,"Ewa Beach, HI 96706, USA",,,+1 808-372-4285,http://honolulu-home-inspection.com/,"Monday: 8:00 AM – 7:00 PM, Tuesday: 8:00 AM – 7:00 PM, Wednesday: 8:00 AM – 7:00 PM, Thursday: 8:00 AM – 7:00 PM, Friday: 8:00 AM – 7:00 PM, Saturday: 8:00 AM – 7:00 PM, Sunday: Closed",,"point_of_interest, establishment",21.3155556,-158.0072222
House Doctors HDinspections LLC,"44-613 Kaneohe Bay Dr, Kaneohe, HI 96744, USA",5,2,+1 808-864-3892,,"Monday: 7:30 AM – 5:30 PM, Tuesday: 7:30 AM – 5:30 PM, Wednesday: 7:30 AM – 5:30 PM, Thursday: 7:30 AM – 5:30 PM, Friday: 7:30 AM – 5:30 PM, Saturday: 7:30 AM – 5:30 PM, Sunday: 7:30 AM – 5:30 PM",,"point_of_interest, establishment",21.4140613,-157.77022409999998
Professional Real Estate Inspectors,"3615 Harding Ave Suite 406, Honolulu, HI 96816, USA",5,2,+1 808-277-6789,http://www.preihawaii.com/,"Monday: 8:00 AM – 5:00 PM, Tuesday: 8:00 AM – 5:00 PM, Wednesday: 8:00 AM – 5:00 PM, Thursday: 8:00 AM – 5:00 PM, Friday: 8:00 AM – 5:00 PM, Saturday: Closed, Sunday: Closed",,"consultant, point_of_interest, establishment",21.2806386,-157.7994012
Genesis Home Inspection,"701 Hauʻoli St, Honolulu, HI 96826, USA",5,1,+1 808-271-0559,,"Monday: 8:00 AM – 8:00 PM, Tuesday: 8:00 AM – 8:00 PM, Wednesday: 8:00 AM – 8:00 PM, Thursday: 8:00 AM – 8:00 PM, Friday: 8:00 AM – 8:00 PM, Saturday: 8:00 AM – 8:00 PM, Sunday: 9:00 AM – 1:00 PM",,"point_of_interest, establishment",21.290525799999998,-157.8344165
ASMHI Inc (A Sound Mind Home Inspection),"3466 Akala Dr, Kihei, HI 96753, USA",4.9,54,+1 808-879-4166,http://www.asmhi.com/,"Monday: 8:30 AM – 4:30 PM, Tuesday: 8:30 AM – 4:30 PM, Wednesday: 8:30 AM – 4:30 PM, Thursday: 8:30 AM – 4:30 PM, Friday: 8:30 AM – 4:30 PM, Saturday: Closed, Sunday: Closed",,"point_of_interest, establishment",20.694457,-156.4312151
All Valley Home Inspections,"1894 Anapa Pl, Kihei, HI 96753, USA",5,15,+1 808-866-8367,http://www.allvalleyhi.com/,"Monday: 8:00 AM – 8:00 PM, Tuesday: 8:00 AM – 8:00 PM, Wednesday: 8:00 AM – 8:00 PM, Thursday: 8:00 AM – 8:00 PM, Friday: 8:00 AM – 8:00 PM, Saturday: 8:00 AM – 8:00 PM, Sunday: 8:00 AM – 8:00 PM",,"point_of_interest, establishment",20.7330663,-156.4486102
Mana Home Inspections,"2058 Kanoe St, Kihei, HI 96753, USA",4.9,66,+1 808-419-8029,http://manahomeinspections.com/,"Monday: 7:00 AM – 7:00 PM, Tuesday: 7:00 AM – 7:00 PM, Wednesday: 7:00 AM – 7:00 PM, Thursday: 7:00 AM – 7:00 PM, Friday: 7:00 AM – 7:00 PM, Saturday: 7:00 AM – 7:00 PM, Sunday: 7:00 AM – 7:00 PM",,"point_of_interest, establishment",20.7289185,-156.44985269999998
Maui360 Home Inspections,"2595 Mikoi Pl, Kihei, HI 96753, USA",5,21,+1 808-866-3349,http://maui360inspections.com/,"Monday: 8:00 AM – 5:00 PM, Tuesday: 8:00 AM – 5:00 PM, Wednesday: 8:00 AM – 5:00 PM, Thursday: 8:00 AM – 5:00 PM, Friday: 8:00 AM – 5:00 PM, Saturday: 8:00 AM – 3:00 PM, Sunday: Closed",,"point_of_interest, establishment",20.7155882,-156.44131059999998
Rock Solid Home Inspections LLC (Hawaii),"55-3309 Pu'u Mamo Dr, Hawi, HI 96719, USA",5,93,+1 808-895-4952,https://www.rshomeinspections.com/,"Monday: 8:00 AM – 6:00 PM, Tuesday: 8:00 AM – 6:00 PM, Wednesday: 8:00 AM – 6:00 PM, Thursday: 8:00 AM – 6:00 PM, Friday: 8:00 AM – 6:00 PM, Saturday: 8:00 AM – 6:00 PM, Sunday: 8:00 AM – 6:00 PM",,"point_of_interest, establishment",20.215830399999998,-155.8388439
Kukui Home Inspection,"484 Kaiwahine St, Kihei, HI 96753, USA",5,4,+1 808-937-9085,https://kukuihomeinspection.com/,"Monday: 7:00 AM – 7:00 PM, Tuesday: 7:00 AM – 7:00 PM, Wednesday: 7:00 AM – 7:00 PM, Thursday: 7:00 AM – 7:00 PM, Friday: 7:00 AM – 7:00 PM, Saturday: 7:00 AM – 7:00 PM, Sunday: Closed",,"point_of_interest, establishment",20.78003,-156.44923799999998
Aloha Home Inspections,"590 Farrington Hwy Suite 529 A, Kapolei, HI 96707, USA",5,59,+1 808-636-9032,http://alohahomeinspect.com/,"Monday: Open 24 hours, Tuesday: Open 24 hours, Wednesday: Open 24 hours, Thursday: Open 24 hours, Friday: Open 24 hours, Saturday: Open 24 hours, Sunday: Open 24 hours",,"point_of_interest, establishment",21.3403052,-158.07655119999998
All Island Home Inspections,"PO Box 1456, Puunene, HI 96784, USA",5,1,+1 808-877-3366,,,,"point_of_interest, establishment",20.8694714,-156.4540958
Homeworks Advantage Inspections,"3950 Kalai Waa St R201, Kihei, HI 96753, USA",5,1,+1 808-868-5225,https://homeworksadvantage.com/,"Monday: 8:00 AM – 8:00 PM, Tuesday: 8:00 AM – 8:00 PM, Wednesday: 8:00 AM – 8:00 PM, Thursday: 8:00 AM – 8:00 PM, Friday: 8:00 AM – 8:00 PM, Saturday: 8:00 AM – 8:00 PM, Sunday: 8:00 AM – 8:00 PM",,"point_of_interest, establishment",20.6832879,-156.4331252
Hawaii Inspection Group Inc,"95 E Lipoa St, Kihei, HI 96753, USA",3.9,7,+1 808-879-6000,http://www.hawaiiinspectiongroup.com/,"Monday: 9:00 AM – 4:00 PM, Tuesday: 9:00 AM – 4:00 PM, Wednesday: 9:00 AM – 4:00 PM, Thursday: 9:00 AM – 4:00 PM, Friday: 9:00 AM – 4:00 PM, Saturday: Closed, Sunday: Closed",,"point_of_interest, establishment",20.7484787,-156.4525071
Mark Thorman Home Inspections,"198 Mehani Cir, Kihei, HI 96753, USA",5,1,+1 808-874-3456,,"Monday: 9:00 AM – 5:00 PM, Tuesday: 9:00 AM – 5:00 PM, Wednesday: 9:00 AM – 5:00 PM, Thursday: 9:00 AM – 5:00 PM, Friday: 9:00 AM – 5:00 PM, Saturday: 9:00 AM – 12:00 PM, Sunday: Closed",,"point_of_interest, establishment",20.7366973,-156.44772659999998
Maui Home Inspections,"2102 Kaupakalua Rd, Haiku, HI 96708, USA",,,+1 920-342-6063,,"Monday: 8:00 AM – 6:00 PM, Tuesday: 8:00 AM – 6:00 PM, Wednesday: 8:00 AM – 6:00 PM, Thursday: 8:00 AM – 6:00 PM, Friday: 8:00 AM – 6:00 PM, Saturday: 9:00 AM – 5:00 PM, Sunday: Closed",,"point_of_interest, establishment",20.88536,-156.300649
Top Notch Home Inspections LLC,"68-1873 Malina Pl, Waikoloa Village, HI 96738, USA",5,843,+1 808-796-1077,https://hawaiitopnotch.com/,"Monday: 8:00 AM – 5:00 PM, Tuesday: 8:00 AM – 5:00 PM, Wednesday: 8:00 AM – 5:00 PM, Thursday: 8:00 AM – 5:00 PM, Friday: 8:00 AM – 4:00 PM, Saturday: 10:00 AM – 3:00 PM, Sunday: 10:00 AM – 3:00 PM",,"point_of_interest, establishment",19.946649,-155.78083999999998
Paul L Signore Building Inspctn,"Kula, HI 96790, USA",5,1,+1 808-876-0170,,,,"point_of_interest, establishment",20.790969699999998,-156.3269338
Kina'ole Home Inspection Services L.L.C.,"73-5590 Kauhola St #C2, Kailua-Kona, HI 96740, USA",5,21,+1 808-769-0095,http://kinaolehomeinspections.com/,"Monday: 9:00 AM – 7:00 PM, Tuesday: 9:00 AM – 7:00 PM, Wednesday: 9:00 AM – 7:00 PM, Thursday: 9:00 AM – 7:00 PM, Friday: 9:00 AM – 7:00 PM, Saturday: 9:00 AM – 7:00 PM, Sunday: Closed",,"point_of_interest, establishment",19.6886603,-156.018272
Home Tech Property Inspections,"273 Wainohia St, Kihei, HI 96753, USA",,,+1 808-268-4563,,"Monday: 8:00 AM – 5:00 PM, Tuesday: 8:00 AM – 5:00 PM, Wednesday: 8:00 AM – 5:00 PM, Thursday: 8:00 AM – 5:00 PM, Friday: 8:00 AM – 5:00 PM, Saturday: 10:00 AM – 2:00 PM, Sunday: 10:00 AM – 2:00 PM",,"point_of_interest, establishment",20.7772972,-156.45148369999998
